{
"type": "FeatureCollection",
"name": "data",
"crs": { "type": "name", "properties": { "name": "urn:ogc:def:crs:OGC:1.3:CRS84" } },
"features": [
{ "type": "Feature", "properties": { "fid": 1, "type": "ავტოსამრეცხაო", "long": 44.840750591672688, "lat": 41.736282502084777, "categories": "ტრანსპორტი", "name": "სახელი", "description": "აღწერა", "address": "მისამართი", "phone": "123456789", "google map": null }, "geometry": { "type": "Point", "coordinates": [ 44.840750591672688, 41.736282502084777 ] } },
{ "type": "Feature", "properties": { "fid": 2, "type": "ავტოსამრეცხაო", "long": 44.835006659052738, "lat": 41.732714217332976, "categories": "ტრანსპორტი", "name": "სახელი", "description": "აღწერა", "address": "ნიკოლოზ ხუდადოვის ქუჩა", "phone": "123456789", "google map": null }, "geometry": { "type": "Point", "coordinates": [ 44.835006659052738, 41.732714217332976 ] } },
{ "type": "Feature", "properties": { "fid": 3, "type": "ავტოსამრეცხაო", "long": 44.833141108287279, "lat": 41.731604858024632, "categories": "ტრანსპორტი", "name": "სახელი", "description": "აღწერა", "address": "ნიკოლოზ ხუდადოვის ქუჩა", "phone": "123456789", "google map": null }, "geometry": { "type": "Point", "coordinates": [ 44.833141108287279, 41.731604858024632 ] } },
{ "type": "Feature", "properties": { "fid": 4, "type": "ავტოსამრეცხაო", "long": 44.832059640837045, "lat": 41.725351987333887, "categories": "ტრანსპორტი", "name": "სახელი", "description": "აღწერა", "address": "მახათას აღმართი", "phone": "123456789", "google map": "https://www.google.com/maps/place/Dibo+Self+Service+Car+Wash/@41.726899,44.832511,1053m/data=!3m1!1e3!4m8!3m7!1s0x40440d508a4b23a1:0x5e800b6c37a6fac2!8m2!3d41.7249698!4d44.8321026!9m1!1b1!16s%2Fg%2F11fxw58s_k?entry=ttu&g_ep=EgoyMDI2MDQxOS4wIKXMDSoASAFQAw%3D%3D" }, "geometry": { "type": "Point", "coordinates": [ 44.832059640837045, 41.725351987333887 ] } },
{ "type": "Feature", "properties": { "fid": 5, "type": "მაღაზია", "long": 44.833211802842605, "lat": 41.727949845187233, "categories": "კვება", "name": "ივერთუბნის მარკეტი", "description": "აღწერა", "address": "ნიკოლოზ აგიაშვილის ქუჩა", "phone": "123456789", "google map": "https://www.google.com/maps/place/Ivertubani+market/@41.7277549,44.8328802,314m/data=!3m1!1e3!4m6!3m5!1s0x40440d000c615ae1:0x4ad1efce0634ea6e!8m2!3d41.7279668!4d44.8332955!16s%2Fg%2F11y4025tz_?entry=ttu&g_ep=EgoyMDI2MDQxOS4wIKXMDSoASAFQAw%3D%3D" }, "geometry": { "type": "Point", "coordinates": [ 44.833211802842605, 41.727949845187233 ] } },
{ "type": "Feature", "properties": { "fid": 6, "type": "მაღაზია", "long": 44.83162706656082, "lat": 41.731031852516317, "categories": "კვება", "name": "სახელი", "description": "აღწერა", "address": "ნიკოლოზ ხუდადოვის ქუჩა", "phone": "123456789", "google map": null }, "geometry": { "type": "Point", "coordinates": [ 44.83162706656082, 41.731031852516317 ] } },
{ "type": "Feature", "properties": { "fid": 7, "type": "მაღაზია", "long": 44.836067094098198, "lat": 41.733324475658847, "categories": "კვება", "name": "სახელი", "description": "აღწერა", "address": "ნიკოლოზ ხუდადოვის ქუჩა", "phone": "123456789", "google map": null }, "geometry": { "type": "Point", "coordinates": [ 44.836067094098198, 41.733324475658847 ] } },
{ "type": "Feature", "properties": { "fid": 8, "type": "ეკლესია", "long": 44.837530061930288, "lat": 41.732108981406348, "categories": "რელიგია", "name": "ივერთუბნის წმინდა გიორგის ტაძარი", "description": "აღწერა", "address": "ჯუმბერ ბეთაშვილის ქუჩა", "phone": "123456789", "google map": null }, "geometry": { "type": "Point", "coordinates": [ 44.837530061930288, 41.732108981406348 ] } },
{ "type": "Feature", "properties": { "fid": 9, "type": "მაღაზია", "long": 44.8282697499926, "lat": 41.729679990598136, "categories": "კვება", "name": "სახელი", "description": "აღწერა", "address": "ნიკოლოზ ხუდადოვის ქუჩა", "phone": "123456789", "google map": null }, "geometry": { "type": "Point", "coordinates": [ 44.8282697499926, 41.729679990598136 ] } },
{ "type": "Feature", "properties": { "fid": 11, "type": "ავტოსახელოსნო", "long": 44.830185683127389, "lat": 41.730529186186594, "categories": "ტრანსპორტი", "name": "სახელი", "description": "აღწერა", "address": "ნიკოლოზ ხუდადოვის ქუჩა", "phone": "123456789", "google map": null }, "geometry": { "type": "Point", "coordinates": [ 44.830185683127389, 41.730529186186594 ] } },
{ "type": "Feature", "properties": { "fid": 12, "type": "ავტოსახელოსნო", "long": 44.826859131610618, "lat": 41.729680443271533, "categories": "ტრანსპორტი", "name": "სახელი", "description": "აღწერა", "address": "რევაზ ურიდიას ქუჩა", "phone": "123456789", "google map": null }, "geometry": { "type": "Point", "coordinates": [ 44.826859131610618, 41.729680443271533 ] } },
{ "type": "Feature", "properties": { "fid": 13, "type": "მკერავი", "long": 44.835307832308835, "lat": 41.728809593473351, "categories": "სერვისები", "name": "მაია", "description": "თეთრეული, ფარდები, ტანსაცმლის გადაკეთება", "address": "ალოიზ მიზანდარის ქუჩა", "phone": "595785027", "google map": "https://maps.app.goo.gl/e5pTcmxqo9KezxNa8" }, "geometry": { "type": "Point", "coordinates": [ 44.835307832308835, 41.728809593473351 ] } },
{ "type": "Feature", "properties": { "fid": 14, "type": "პარკი", "long": 44.841679288970106, "lat": 41.735754011715308, "categories": "დასვენება", "name": "ივერთუბნის პარკი", "description": "აღწერა", "address": "მისამართი", "phone": "123456789", "google map": null }, "geometry": { "type": "Point", "coordinates": [ 44.841679288970106, 41.735754011715308 ] } },
{ "type": "Feature", "properties": { "fid": 15, "type": "აფთიაქი", "long": 44.834546196179993, "lat": 41.732226751725598, "categories": "ჯანმრთელობა", "name": "სახელი", "description": "აღწერა", "address": "ნიკოლოზ ხუდადოვის ქუჩა", "phone": "123456789", "google map": null }, "geometry": { "type": "Point", "coordinates": [ 44.834546196179993, 41.732226751725598 ] } },
{ "type": "Feature", "properties": { "fid": 16, "type": "მაღაზია", "long": 44.834456285273539, "lat": 41.732157815941775, "categories": "კვება", "name": "სახელი", "description": "აღწერა", "address": "ნიკოლოზ ხუდადოვის ქუჩა", "phone": "123456789", "google map": "https://www.google.com/maps/place/Carrefour+city/@41.7319314,44.8340714,133m/data=!3m1!1e3!4m6!3m5!1s0x40440d004d01f345:0xfec9f83d4f6bb481!8m2!3d41.7319479!4d44.8345587!16s%2Fg%2F11w3m053kj?entry=ttu&g_ep=EgoyMDI2MDQxOS4wIKXMDSoASAFQAw%3D%3D" }, "geometry": { "type": "Point", "coordinates": [ 44.834456285273539, 41.732157815941775 ] } },
{ "type": "Feature", "properties": { "fid": 17, "type": "აფთიაქი", "long": 44.828035352597745, "lat": 41.72959786274172, "categories": "ჯანმრთელობა", "name": "სახელი", "description": "აღწერა", "address": "ნიკოლოზ ხუდადოვის ქუჩა", "phone": "123456789", "google map": null }, "geometry": { "type": "Point", "coordinates": [ 44.828035352597745, 41.72959786274172 ] } },
{ "type": "Feature", "properties": { "fid": 18, "type": "ავტოსახელოსნო", "long": 44.827018810802933, "lat": 41.729274677152638, "categories": "ტრანსპორტი", "name": "სახელი", "description": "აღწერა", "address": "ნიკოლოზ ხუდადოვის ქუჩა", "phone": "123456789", "google map": null }, "geometry": { "type": "Point", "coordinates": [ 44.827018810802933, 41.729274677152638 ] } },
{ "type": "Feature", "properties": { "fid": 19, "type": "ბენზინგასამართი", "long": 44.82751270496027, "lat": 41.729416231136668, "categories": "ტრანსპორტი", "name": "სახელი", "description": "აღწერა", "address": "ნიკოლოზ ხუდადოვის ქუჩა", "phone": "123456789", "google map": null }, "geometry": { "type": "Point", "coordinates": [ 44.82751270496027, 41.729416231136668 ] } },
{ "type": "Feature", "properties": { "fid": 20, "type": "მაღაზია", "long": 44.838786054049031, "lat": 41.735319308085415, "categories": "კვება", "name": "ნიკორა", "description": "აღწერა", "address": "ნიკოლოზ ხუდადოვის ქუჩა", "phone": "123456789", "google map": null }, "geometry": { "type": "Point", "coordinates": [ 44.838786054049031, 41.735319308085415 ] } },
{ "type": "Feature", "properties": { "fid": 21, "type": "ბენზინგასამართი", "long": 44.839708811624604, "lat": 41.736505666851038, "categories": "ტრანსპორტი", "name": "სახელი", "description": "აღწერა", "address": "მისამართი", "phone": "123456789", "google map": null }, "geometry": { "type": "Point", "coordinates": [ 44.839708811624604, 41.736505666851038 ] } },
{ "type": "Feature", "properties": { "fid": 22, "type": "ინგლისური ენის მასწავლებელი", "long": 44.840097004798963, "lat": 41.733967887333165, "categories": "განათლება", "name": "სახელი", "description": "სამუშაო სთ:09:00-21:00", "address": "მერი შერვაშიძის ქუჩა", "phone": "123456789", "google map": null }, "geometry": { "type": "Point", "coordinates": [ 44.840097004798963, 41.733967887333165 ] } },
{ "type": "Feature", "properties": { "fid": 23, "type": "ფრჩხილების სპეციალისტი", "long": 44.835999723108159, "lat": 41.730654779434872, "categories": "სილამაზე", "name": "ნესტანი", "description": "ფრჩხილების სპეციალისტი, მაკიაჟი, წამწამები და წარბების ლამინირება | სამუშაო სთ 09:00-21:00", "address": "ზაქარია ჯორჯაძის ქუჩა", "phone": "571227654", "google map": "https://maps.app.goo.gl/3h6fGhJBummU8R6YA" }, "geometry": { "type": "Point", "coordinates": [ 44.835999723108159, 41.730654779434872 ] } },
{ "type": "Feature", "properties": { "fid": 24, "type": "რუსულის ენის მასწავლებელი", "long": 44.836773293686726, "lat": 41.728051323551441, "categories": "შაბლონი", "name": "შაბლონი", "description": "იყიდება ნაკვეთი", "address": "ქუჩა", "phone": "123456789", "google map": null }, "geometry": { "type": "Point", "coordinates": [ 44.836773293686726, 41.728051323551441 ] } },
{ "type": "Feature", "properties": { "fid": 25, "type": "საბავშვო ბაღი", "long": 44.833069715867147, "lat": 41.736366515588507, "categories": "განათლება", "name": "სახელი", "description": "აღწერა", "address": "ნინო წერეთლის ქუჩა, N 36", "phone": "123456789", "google map": null }, "geometry": { "type": "Point", "coordinates": [ 44.833069715867147, 41.736366515588507 ] } },
{ "type": "Feature", "properties": { "fid": 26, "type": "იყიდება", "long": 44.843786210164325, "lat": 41.730263529135172, "categories": "შაბლონი", "name": "შაბლონი", "description": "იყიდება ნაკვეთი", "address": "ქუჩა", "phone": "123456789", "google map": null }, "geometry": { "type": "Point", "coordinates": [ 44.843786210164325, 41.730263529135172 ] } },
{ "type": "Feature", "properties": { "fid": 27, "type": "იყიდება", "long": 44.838346805628696, "lat": 41.730428162147163, "categories": "შაბლონი", "name": "შაბლონი", "description": "იყიდება სახლი", "address": "ქუჩა", "phone": "123456789", "google map": null }, "geometry": { "type": "Point", "coordinates": [ 44.838346805628696, 41.730428162147163 ] } },
{ "type": "Feature", "properties": { "fid": 28, "type": "გადაზიდვები", "long": 44.834741825486283, "lat": 41.728577981040523, "categories": "სხვა", "name": "ტიტე", "description": "ტვირთის, ავეჯის, სამშენებლო მასალების გადაზიდვა და გატანა საქართველოს მასშტაბით", "address": "ალოიზ მიზანდარის ქუჩა", "phone": "558607041", "google map": "https://maps.app.goo.gl/y9Yv5kAg2zQthNaZA" }, "geometry": { "type": "Point", "coordinates": [ 44.834741825486283, 41.728577981040523 ] } },
{ "type": "Feature", "properties": { "fid": 170, "type": "სკოლა", "long": 44.8089959053775, "lat": 41.724548028143893, "categories": "განათლება", "name": "საჯარო სკოლა №5", "description": "აღწერა", "address": "ნიკოლოზ ხუდადოვის ქუჩა, N63", "phone": "123456789", "google map": "https://maps.app.goo.gl/QkLEdxeF7ErWJbfx6" }, "geometry": { "type": "Point", "coordinates": [ 44.8089959053775, 41.724548028143893 ] } },
{ "type": "Feature", "properties": { "fid": 171, "type": "სკოლა", "long": 44.808292678654752, "lat": 41.729840610234106, "categories": "განათლება", "name": "საჯარო სკოლა №8", "description": "აღწერა", "address": "ლევან ცქიტიშვილის ქუჩა, N11", "phone": "123456789", "google map": "https://maps.app.goo.gl/3qbhZgrbrqqpVvxp9" }, "geometry": { "type": "Point", "coordinates": [ 44.808292678654752, 41.729840610234106 ] } },
{ "type": "Feature", "properties": { "fid": 172, "type": "სპეც მასწავლებელი", "long": 44.834942152155158, "lat": 41.728664491715421, "categories": "განათლება", "name": "ინგა", "description": "ბავშვის აკადემიური, კოგნიტური და ფუნქციური უნარების განვითარება", "address": "ალოიზ მიზანდარის ქუჩა", "phone": "595535451", "google map": "https://maps.app.goo.gl/fi7hrKvMJv6imjfi7" }, "geometry": { "type": "Point", "coordinates": [ 44.834942152155158, 41.728664491715421 ] } },
{ "type": "Feature", "properties": { "fid": 173, "type": "სარემონტო სამუშაოები", "long": 44.835440166665038, "lat": 41.728859522495753, "categories": "სხვა", "name": "ტარიელი", "description": "შიდა რემონტი, ელექტროობა, კაფელის და მეტლახის დაგება, სანტექნიკა", "address": "ალოიზ მიზანდარის ქუჩა", "phone": null, "google map": "https://maps.app.goo.gl/jDEpvsA1xWGYXFjP7" }, "geometry": { "type": "Point", "coordinates": [ 44.835440166665038, 41.728859522495753 ] } },
{ "type": "Feature", "properties": { "fid": 174, "type": "გადაზიდვები", "long": 44.836146302157296, "lat": 41.730527390795928, "categories": "სხვა", "name": "გიორგი", "description": "ტვირთის, ავეჯის, სამშენებლო მასალების გადაზიდვა და გატანა საქართველოს მასშტაბით", "address": "ზაქარია ჯორჯაძის ქუჩა", "phone": "568000420", "google map": "https://maps.app.goo.gl/https://maps.app.goo.gl/9botiFc49GuC1NRU8" }, "geometry": { "type": "Point", "coordinates": [ 44.836146302157296, 41.730527390795928 ] } },
{ "type": "Feature", "properties": { "fid": 175, "type": "სხვადასხვა", "long": 44.843271466811053, "lat": 41.725310596877662, "categories": "სხვა", "name": "გიორგი", "description": "დისკზე, ფლეშ მეხსიერებაზე სიმღერების ჩაწერა მანქანისთვის. კომპიუტერული პროგრამების ინსტალაცია დისტანციურად.", "address": null, "phone": "579320618", "google map": null }, "geometry": { "type": "Point", "coordinates": [ 44.843271466811053, 41.725310596877662 ] } },
{ "type": "Feature", "properties": { "fid": 176, "type": "ვაკანსია", "long": 44.838816279127393, "lat": 41.729927908685674, "categories": "სხვა", "name": "სახელი", "description": "ძიძა", "address": "მისამართი", "phone": "123456789", "google map": null }, "geometry": { "type": "Point", "coordinates": [ 44.838816279127393, 41.729927908685674 ] } },
{ "type": "Feature", "properties": { "fid": 177, "type": "ქუჩა დაკეტილია", "long": 44.83443040223365, "lat": 41.731935484503957, "categories": "ინფრასტრუქტურა", "name": null, "description": "ქუჩა დაკეტილია, GWP მუშაობს", "address": "ზაქარია ჯორჯაძის ქუჩა", "phone": "123456789", "google map": null }, "geometry": { "type": "Point", "coordinates": [ 44.83443040223365, 41.731935484503957 ] } },
{ "type": "Feature", "properties": { "fid": 178, "type": "ვეძებ", "long": 44.840611064121539, "lat": 41.727564615956204, "categories": "ჯანმრთელობა", "name": "სახელი", "description": "მესაჭიროება მომვლელი", "address": "ქუჩა", "phone": "123456789", "google map": null }, "geometry": { "type": "Point", "coordinates": [ 44.840611064121539, 41.727564615956204 ] } }
]
}
