{
"type": "FeatureCollection",
"name": "data",
"crs": { "type": "name", "properties": { "name": "urn:ogc:def:crs:OGC:1.3:CRS84" } },
"features": [
{ "type": "Feature", "properties": { "fid": 1, "type": "ავტოსამრეცხაო", "long": 44.840750591672688, "lat": 41.736282502084777, "categories": "ტრანსპორტი", "name": null, "description": null, "address": null, "phone": "000000000", "google map": null }, "geometry": { "type": "Point", "coordinates": [ 44.840750591672688, 41.736282502084777 ] } },
{ "type": "Feature", "properties": { "fid": 2, "type": "ავტოსამრეცხაო", "long": 44.835006659052738, "lat": 41.732714217332976, "categories": "ტრანსპორტი", "name": null, "description": null, "address": "ნიკოლოზ ხუდადოვის ქუჩა", "phone": "000000000", "google map": null }, "geometry": { "type": "Point", "coordinates": [ 44.835006659052738, 41.732714217332976 ] } },
{ "type": "Feature", "properties": { "fid": 3, "type": "ავტოსამრეცხაო", "long": 44.833141108287279, "lat": 41.731604858024632, "categories": "ტრანსპორტი", "name": null, "description": null, "address": "ნიკოლოზ ხუდადოვის ქუჩა", "phone": "000000000", "google map": null }, "geometry": { "type": "Point", "coordinates": [ 44.833141108287279, 41.731604858024632 ] } },
{ "type": "Feature", "properties": { "fid": 4, "type": "ავტოსამრეცხაო", "long": 44.832251535132798, "lat": 41.725118312988805, "categories": "ტრანსპორტი", "name": null, "description": null, "address": "მახათას აღმართი", "phone": "000000000", "google map": "https://www.google.com/maps/place/Dibo+Self+Service+Car+Wash/@41.726899,44.832511,1053m/data=!3m1!1e3!4m8!3m7!1s0x40440d508a4b23a1:0x5e800b6c37a6fac2!8m2!3d41.7249698!4d44.8321026!9m1!1b1!16s%2Fg%2F11fxw58s_k?entry=ttu&g_ep=EgoyMDI2MDQxOS4wIKXMDSoASAFQAw%3D%3D" }, "geometry": { "type": "Point", "coordinates": [ 44.832251535132798, 41.725118312988805 ] } },
{ "type": "Feature", "properties": { "fid": 5, "type": "მაღაზია", "long": 44.833211802842605, "lat": 41.727949845187233, "categories": "კვება", "name": "ივერთუბნის მარკეტი", "description": null, "address": "ნიკოლოზ აგიაშვილის ქუჩა", "phone": "000000000", "google map": "https://www.google.com/maps/place/Ivertubani+market/@41.7277549,44.8328802,314m/data=!3m1!1e3!4m6!3m5!1s0x40440d000c615ae1:0x4ad1efce0634ea6e!8m2!3d41.7279668!4d44.8332955!16s%2Fg%2F11y4025tz_?entry=ttu&g_ep=EgoyMDI2MDQxOS4wIKXMDSoASAFQAw%3D%3D" }, "geometry": { "type": "Point", "coordinates": [ 44.833211802842605, 41.727949845187233 ] } },
{ "type": "Feature", "properties": { "fid": 6, "type": "მაღაზია", "long": 44.83162706656082, "lat": 41.731031852516317, "categories": "კვება", "name": "კალათა", "description": null, "address": "ნიკოლოზ ხუდადოვის ქუჩა", "phone": "000000000", "google map": null }, "geometry": { "type": "Point", "coordinates": [ 44.83162706656082, 41.731031852516317 ] } },
{ "type": "Feature", "properties": { "fid": 7, "type": "მაღაზია", "long": 44.835713604606021, "lat": 41.733249106322575, "categories": "კვება", "name": "ორი ნაბიჯი", "description": null, "address": "ნიკოლოზ ხუდადოვის ქუჩა", "phone": "000000000", "google map": null }, "geometry": { "type": "Point", "coordinates": [ 44.835713604606021, 41.733249106322575 ] } },
{ "type": "Feature", "properties": { "fid": 8, "type": "ეკლესია", "long": 44.837530061930288, "lat": 41.732108981406348, "categories": null, "name": "ივერთუბნის წმინდა გიორგის ტაძარი", "description": null, "address": "ჯუმბერ ბეთაშვილის ქუჩა", "phone": "000000000", "google map": null }, "geometry": { "type": "Point", "coordinates": [ 44.837530061930288, 41.732108981406348 ] } },
{ "type": "Feature", "properties": { "fid": 9, "type": "მაღაზია", "long": 44.828514542389051, "lat": 41.729686515148103, "categories": "კვება", "name": null, "description": null, "address": "ნიკოლოზ ხუდადოვის ქუჩა", "phone": "000000000", "google map": null }, "geometry": { "type": "Point", "coordinates": [ 44.828514542389051, 41.729686515148103 ] } },
{ "type": "Feature", "properties": { "fid": 10, "type": "მაღაზია", "long": 44.827865496649167, "lat": 41.729408758952651, "categories": "კვება", "name": "ხორცპროდუქტები", "description": null, "address": "ნიკოლოზ ხუდადოვის ქუჩა", "phone": "000000000", "google map": null }, "geometry": { "type": "Point", "coordinates": [ 44.827865496649167, 41.729408758952651 ] } },
{ "type": "Feature", "properties": { "fid": 11, "type": "ავტოსახელოსნო", "long": 44.830185683127389, "lat": 41.730529186186594, "categories": "ტრანსპორტი", "name": null, "description": null, "address": "ნიკოლოზ ხუდადოვის ქუჩა", "phone": "000000000", "google map": null }, "geometry": { "type": "Point", "coordinates": [ 44.830185683127389, 41.730529186186594 ] } },
{ "type": "Feature", "properties": { "fid": 12, "type": "ავტოსახელოსნო", "long": 44.826434944219997, "lat": 41.729687980672551, "categories": "ტრანსპორტი", "name": null, "description": null, "address": "რევაზ ურიდიას ქუჩა", "phone": "000000000", "google map": null }, "geometry": { "type": "Point", "coordinates": [ 44.826434944219997, 41.729687980672551 ] } },
{ "type": "Feature", "properties": { "fid": 13, "type": "მკერავი", "long": 44.833597629136257, "lat": 41.728144480241667, "categories": "", "name": null, "description": null, "address": "ალოიზ მიზანდარის ქუჩა", "phone": "000000000", "google map": null }, "geometry": { "type": "Point", "coordinates": [ 44.833597629136257, 41.728144480241667 ] } },
{ "type": "Feature", "properties": { "fid": 14, "type": "პარკი", "long": 44.841679288970106, "lat": 41.735754011715308, "categories": "დასვენება", "name": "ივერთუბნის პარკი", "description": null, "address": null, "phone": "000000000", "google map": null }, "geometry": { "type": "Point", "coordinates": [ 44.841679288970106, 41.735754011715308 ] } },
{ "type": "Feature", "properties": { "fid": 15, "type": "აფთიაქი", "long": 44.834546196179993, "lat": 41.732038324836388, "categories": null, "name": "ფარმადეპო", "description": null, "address": "ნიკოლოზ ხუდადოვის ქუჩა", "phone": "000000000", "google map": null }, "geometry": { "type": "Point", "coordinates": [ 44.834546196179993, 41.732038324836388 ] } },
{ "type": "Feature", "properties": { "fid": 16, "type": "მაღაზია", "long": 44.834456285273539, "lat": 41.731969389052566, "categories": "კვება", "name": "კარფური", "description": "", "address": "ნიკოლოზ ხუდადოვის ქუჩა", "phone": "000000000", "google map": "https://www.google.com/maps/place/Carrefour+city/@41.7319314,44.8340714,133m/data=!3m1!1e3!4m6!3m5!1s0x40440d004d01f345:0xfec9f83d4f6bb481!8m2!3d41.7319479!4d44.8345587!16s%2Fg%2F11w3m053kj?entry=ttu&g_ep=EgoyMDI2MDQxOS4wIKXMDSoASAFQAw%3D%3D" }, "geometry": { "type": "Point", "coordinates": [ 44.834456285273539, 41.731969389052566 ] } },
{ "type": "Feature", "properties": { "fid": 17, "type": "აფთიაქი", "long": 44.828280144994196, "lat": 41.729604387291687, "categories": null, "name": "ავერსი", "description": "", "address": "ნიკოლოზ ხუდადოვის ქუჩა", "phone": "000000000", "google map": null }, "geometry": { "type": "Point", "coordinates": [ 44.828280144994196, 41.729604387291687 ] } },
{ "type": "Feature", "properties": { "fid": 18, "type": "ავტოსახელოსნო", "long": 44.826594623412312, "lat": 41.729282214553656, "categories": "ტრანსპორტი", "name": "ამბოლი", "description": "", "address": "ნიკოლოზ ხუდადოვის ქუჩა", "phone": "000000000", "google map": null }, "geometry": { "type": "Point", "coordinates": [ 44.826594623412312, 41.729282214553656 ] } },
{ "type": "Feature", "properties": { "fid": 19, "type": "ბენზინგასამართი", "long": 44.827088517569649, "lat": 41.729423768537686, "categories": "ტრანსპორტი", "name": "გალფი", "description": "", "address": "ნიკოლოზ ხუდადოვის ქუჩა", "phone": "000000000", "google map": null }, "geometry": { "type": "Point", "coordinates": [ 44.827088517569649, 41.729423768537686 ] } },
{ "type": "Feature", "properties": { "fid": 20, "type": "მაღაზია", "long": 44.838412365157289, "lat": 41.735236404301055, "categories": "კვება", "name": "ნიკორა", "description": "", "address": "ნიკოლოზ ხუდადოვის ქუჩა", "phone": "000000000", "google map": null }, "geometry": { "type": "Point", "coordinates": [ 44.838412365157289, 41.735236404301055 ] } },
{ "type": "Feature", "properties": { "fid": 21, "type": "ბენზინგასამართი", "long": 44.839274524534211, "lat": 41.73639261858402, "categories": "ტრანსპორტი", "name": "სოკარი", "description": null, "address": null, "phone": "000000000", "google map": null }, "geometry": { "type": "Point", "coordinates": [ 44.839274524534211, 41.73639261858402 ] } },
{ "type": "Feature", "properties": { "fid": 22, "type": "ინგლისური ენის მასწავლებელი", "long": 44.840097004798963, "lat": 41.733967887333165, "categories": "განათლება", "name": "სახელი", "description": "სამუშაო სთ:09:00-21:00", "address": "მერი შერვაშიძის ქუჩა", "phone": "000000000", "google map": null }, "geometry": { "type": "Point", "coordinates": [ 44.840097004798963, 41.733967887333165 ] } },
{ "type": "Feature", "properties": { "fid": 23, "type": "ფრჩხილების სპეციალისტი", "long": 44.835603862155459, "lat": 41.730987949937798, "categories": "ჯანმრთელობა", "name": "სახელი", "description": "სამუშაო სთ:09:00-21:00", "address": "ზაქარია ჯორჯაძის ქუჩა", "phone": "000000000", "google map": null }, "geometry": { "type": "Point", "coordinates": [ 44.835603862155459, 41.730987949937798 ] } },
{ "type": "Feature", "properties": { "fid": 24, "type": "რუსულის ენის მასწავლებელი", "long": 44.836773293686726, "lat": 41.728051323551441, "categories": "განათლება", "name": "სახელი", "description": null, "address": null, "phone": null, "google map": null }, "geometry": { "type": "Point", "coordinates": [ 44.836773293686726, 41.728051323551441 ] } },
{ "type": "Feature", "properties": { "fid": 25, "type": "საბავშვო ბაღი", "long": 44.833069715867147, "lat": 41.736366515588507, "categories": "განათლება", "name": null, "description": null, "address": "ნინო წერეთლის ქუჩა, N 36", "phone": null, "google map": null }, "geometry": { "type": "Point", "coordinates": [ 44.833069715867147, 41.736366515588507 ] } },
{ "type": "Feature", "properties": { "fid": 26, "type": "იყიდება", "long": 44.843786210164325, "lat": 41.730263529135172, "categories": "ვაჭრობა", "name": null, "description": "იყიდება ნაკვეთი", "address": "ქუჩა", "phone": "000000000", "google map": null }, "geometry": { "type": "Point", "coordinates": [ 44.843786210164325, 41.730263529135172 ] } },
{ "type": "Feature", "properties": { "fid": 27, "type": "იყიდება", "long": 44.838346805628696, "lat": 41.730428162147163, "categories": "ვაჭრობა", "name": null, "description": "იყიდება სახლი", "address": "ქუჩა", "phone": "0000000000", "google map": null }, "geometry": { "type": "Point", "coordinates": [ 44.838346805628696, 41.730428162147163 ] } }
]
}
